seconds_elapsed,gyroscope_z,gyroscope_y,gyroscope_x,gyroscope_local_time,gravity_z,gravity_y,gravity_x,gravity_local_time,magnetometerUncalibrated_z,magnetometerUncalibrated_y,magnetometerUncalibrated_x,magnetometerUncalibrated_local_time,magnetometer_z,magnetometer_y,magnetometer_x,magnetometer_local_time,location_altitude,location_speedAccuracy,location_bearingAccuracy,location_latitude,location_altitudeAboveMeanSeaLevel,location_bearing,location_horizontalAccuracy,location_verticalAccuracy,location_longitude,location_speed,location_local_time,gyroscopeUncalibrated_z,gyroscopeUncalibrated_y,gyroscopeUncalibrated_x,gyroscopeUncalibrated_local_time,orientation_yaw,orientation_qx,orientation_qz,orientation_roll,orientation_qw,orientation_qy,orientation_pitch,orientation_local_time,accelerometerUncalibrated_z,accelerometerUncalibrated_y,accelerometerUncalibrated_x,accelerometerUncalibrated_local_time,accelerometer_z,accelerometer_y,accelerometer_x,accelerometer_local_time
0.000000,0.022835,-0.010623,0.009007,2025-10-15T16:36:45.203-07:00,-8.882070,-3.888641,1.461152,2025-10-15T16:36:45.203-07:00,-618.359883,39.924852,70.697415,2025-10-15T16:36:45.180-07:00,-47.970673,-5.475516,-1.875556,2025-10-15T16:36:45.203-07:00,392.249405,-1.000000,-1.000000,33.304023,422.679108,-1.000000,16.216938,8.734590,-111.680061,-1.000000,2025-10-15T16:36:45.170-07:00,0.022472,-0.013833,0.009348,2025-10-15T16:36:45.184-07:00,-2.341376,-0.152078,0.892489,0.163001,-0.395315,0.154819,0.407768,2025-10-15T16:36:45.203-07:00,-0.898404,-0.389062,0.146294,2025-10-15T16:36:45.194-07:00,0.064805,0.070292,-0.034881,2025-10-15T16:36:45.203-07:00
1.000000,0.129613,0.013967,-0.002973,2025-10-15T16:36:46.127-07:00,-8.932343,-3.773773,1.456259,2025-10-15T16:36:46.127-07:00,-617.878179,40.833999,70.894147,2025-10-15T16:36:46.135-07:00,-47.534497,-4.536612,-1.681726,2025-10-15T16:36:46.127-07:00,,,,,,,,,,,,0.131544,0.012030,-0.004185,2025-10-15T16:36:46.128-07:00,-2.321341,-0.150618,0.889844,0.161583,-0.404136,0.147884,0.395019,2025-10-15T16:36:46.127-07:00,-0.899348,-0.392066,0.149374,2025-10-15T16:36:46.128-07:00,0.104304,-0.063396,0.008804,2025-10-15T16:36:46.127-07:00
2.000000,0.676961,-0.075345,-0.153531,2025-10-15T16:36:47.131-07:00,-9.107788,-3.434497,-0.738633,2025-10-15T16:36:47.131-07:00,-616.385504,44.250714,67.849854,2025-10-15T16:36:47.131-07:00,-46.132892,-1.154745,-4.709605,2025-10-15T16:36:47.131-07:00,,,,,,,,,,,,0.678985,-0.081675,-0.151313,2025-10-15T16:36:47.135-07:00,-1.850142,-0.075643,0.785041,-0.079578,-0.584022,0.169126,0.358538,2025-10-15T16:36:47.131-07:00,-0.892794,-0.313339,-0.060555,2025-10-15T16:36:47.135-07:00,0.353437,0.350939,0.166757,2025-10-15T16:36:47.131-07:00
3.000000,-0.070950,0.069375,0.126144,2025-10-15T16:36:48.135-07:00,-9.325626,-2.508462,-1.526939,2025-10-15T16:36:48.135-07:00,-617.430895,47.838896,69.693232,2025-10-15T16:36:48.127-07:00,-47.371003,2.473269,-2.848425,2025-10-15T16:36:48.135-07:00,,,,,,,,,,,,-0.070347,0.071414,0.117931,2025-10-15T16:36:48.129-07:00,-1.456707,-0.042728,0.664827,-0.161848,-0.730322,0.145759,0.259361,2025-10-15T16:36:48.135-07:00,-0.979712,-0.254962,-0.165996,2025-10-15T16:36:48.129-07:00,-0.285958,0.016337,-0.107421,2025-10-15T16:36:48.135-07:00
4.000000,-0.024046,0.023270,-0.005619,2025-10-15T16:36:49.130-07:00,-9.215886,-3.210657,-0.955711,2025-10-15T16:36:49.130-07:00,-617.353083,44.999232,71.818733,2025-10-15T16:36:49.133-07:00,-47.153897,-0.411005,-0.717084,2025-10-15T16:36:49.130-07:00,,,,,,,,,,,,-0.025506,0.021266,-0.007753,2025-10-15T16:36:49.133-07:00,-1.467403,-0.089049,0.665803,-0.103343,-0.725645,0.148852,0.333550,2025-10-15T16:36:49.130-07:00,-0.931380,-0.322704,-0.097836,2025-10-15T16:36:49.133-07:00,0.081281,0.044543,-0.003981,2025-10-15T16:36:49.130-07:00
5.000000,-0.002226,0.003994,-0.006322,2025-10-15T16:36:50.134-07:00,-9.243697,-3.171600,-0.813322,2025-10-15T16:36:50.134-07:00,-617.563911,45.049340,72.335999,2025-10-15T16:36:50.129-07:00,-47.383641,-0.364741,-0.188155,2025-10-15T16:36:50.134-07:00,,,,,,,,,,,,-0.003201,0.002866,-0.007488,2025-10-15T16:36:50.127-07:00,-1.479384,-0.091805,0.669609,-0.087759,-0.723132,0.142354,0.329338,2025-10-15T16:36:50.134-07:00,-0.934032,-0.322012,-0.081771,2025-10-15T16:36:50.127-07:00,0.086118,0.013647,0.012817,2025-10-15T16:36:50.134-07:00
6.000000,-0.007951,0.009488,-0.017392,2025-10-15T16:36:51.128-07:00,-9.216091,-3.267639,-0.739010,2025-10-15T16:36:51.128-07:00,-617.523117,44.631139,72.486727,2025-10-15T16:36:51.135-07:00,-47.345296,-0.785986,-0.037787,2025-10-15T16:36:51.128-07:00,392.249405,-1.000000,-1.000000,33.304023,422.679108,-1.000000,15.801344,8.751316,-111.680061,-1.000000,2025-10-15T16:36:51.191-07:00,-0.009173,0.007519,-0.019169,2025-10-15T16:36:51.132-07:00,-1.485076,-0.097787,0.670869,-0.080020,-0.720986,0.143255,0.339720,2025-10-15T16:36:51.128-07:00,-0.926275,-0.327932,-0.077789,2025-10-15T16:36:51.132-07:00,0.127388,0.047615,-0.023847,2025-10-15T16:36:51.128-07:00
7.000000,0.350566,-0.010850,-0.349235,2025-10-15T16:36:52.132-07:00,-9.601396,-1.137830,-0.998565,2025-10-15T16:36:52.132-07:00,-617.336742,52.708217,73.703854,2025-10-15T16:36:52.131-07:00,-46.966945,7.166694,1.215879,2025-10-15T16:36:52.132-07:00,,,,,,,,,,,,0.353213,-0.013731,-0.352943,2025-10-15T16:36:52.136-07:00,-1.333036,-0.012219,0.615208,-0.103208,-0.778868,0.080165,0.117300,2025-10-15T16:36:52.132-07:00,-0.967999,-0.108517,-0.097851,2025-10-15T16:36:52.136-07:00,0.114821,0.056907,0.039182,2025-10-15T16:36:52.132-07:00
8.000000,0.018859,0.046372,-0.003622,2025-10-15T16:36:53.136-07:00,-9.758275,0.673616,-0.674968,2025-10-15T16:36:53.136-07:00,-616.894414,58.531835,77.533301,2025-10-15T16:36:53.137-07:00,-46.334330,13.092183,5.085342,2025-10-15T16:36:53.136-07:00,,,,,,,,,,,,0.017755,0.045136,-0.006874,2025-10-15T16:36:53.130-07:00,-1.087142,0.047291,0.515486,-0.069067,-0.855396,0.011708,-0.068747,2025-10-15T16:36:53.136-07:00,-0.994403,0.068329,-0.071013,2025-10-15T16:36:53.130-07:00,0.006525,-0.003392,-0.021683,2025-10-15T16:36:53.136-07:00
9.000000,0.097783,-0.020698,0.019061,2025-10-15T16:36:54.130-07:00,-9.763352,0.655656,-0.631556,2025-10-15T16:36:54.130-07:00,-617.709932,58.023268,78.134770,2025-10-15T16:36:54.132-07:00,-47.165883,12.584073,5.698763,2025-10-15T16:36:54.130-07:00,,,,,,,,,,,,0.097516,-0.022536,0.018655,2025-10-15T16:36:54.134-07:00,-1.000805,0.044695,0.478229,-0.064592,-0.876768,0.012241,-0.066911,2025-10-15T16:36:54.130-07:00,-0.986056,0.063824,-0.065372,2025-10-15T16:36:54.134-07:00,0.092609,-0.029461,-0.009822,2025-10-15T16:36:54.130-07:00
10.000000,0.037765,-0.023098,0.002962,2025-10-15T16:36:55.134-07:00,-9.747870,0.620563,-0.871407,2025-10-15T16:36:55.134-07:00,-618.446182,57.381082,77.364317,2025-10-15T16:36:55.128-07:00,-47.902757,11.940224,4.940247,2025-10-15T16:36:55.134-07:00,,,,,,,,,,,,0.036366,-0.025154,0.000199,2025-10-15T16:36:55.128-07:00,-0.938048,0.048327,0.450063,-0.089158,-0.891280,0.025452,-0.063323,2025-10-15T16:36:55.134-07:00,-0.987673,0.060589,-0.088219,2025-10-15T16:36:55.128-07:00,0.061137,-0.026471,0.007286,2025-10-15T16:36:55.134-07:00
11.000000,0.011715,0.015866,0.005500,2025-10-15T16:36:56.128-07:00,-9.748491,0.625547,-0.861602,2025-10-15T16:36:56.128-07:00,-618.332323,57.208353,77.607034,2025-10-15T16:36:56.134-07:00,-47.774006,11.775740,5.176796,2025-10-15T16:36:56.128-07:00,,,,,,,,,,,,0.010566,0.013858,0.003918,2025-10-15T16:36:56.132-07:00,-0.915074,0.048059,0.439815,-0.088155,-0.896425,0.025424,-0.063832,2025-10-15T16:36:56.128-07:00,-0.986282,0.061387,-0.085950,2025-10-15T16:36:56.132-07:00,0.078121,-0.024243,0.019422,2025-10-15T16:36:56.128-07:00
12.000000,-0.036033,0.005133,-0.007707,2025-10-15T16:36:57.133-07:00,-9.754280,0.629279,-0.791809,2025-10-15T16:36:57.133-07:00,-618.340662,57.154771,78.165193,2025-10-15T16:36:57.130-07:00,-47.763750,11.713698,5.749004,2025-10-15T16:36:57.133-07:00,392.249405,-1.000000,-1.000000,33.304023,422.679108,-1.000000,16.107077,8.735557,-111.680061,-1.000000,2025-10-15T16:36:57.201-07:00,-0.037076,0.003161,-0.009449,2025-10-15T16:36:57.136-07:00,-0.915815,0.046656,0.440314,-0.080998,-0.896349,0.022118,-0.064213,2025-10-15T16:36:57.133-07:00,-0.986450,0.062001,-0.080346,2025-10-15T16:36:57.136-07:00,0.075850,-0.016178,0.005537,2025-10-15T16:36:57.133-07:00
13.000000,-0.011666,0.011726,-0.004422,2025-10-15T16:36:58.127-07:00,-9.761793,0.641789,-0.679973,2025-10-15T16:36:58.127-07:00,-618.317357,57.642013,78.357313,2025-10-15T16:36:58.136-07:00,-47.734705,12.207607,5.927911,2025-10-15T16:36:58.127-07:00,,,,,,,,,,,,-0.012614,0.010070,-0.006317,2025-10-15T16:36:58.131-07:00,-0.932940,0.044846,0.448202,-0.069545,-0.892649,0.016322,-0.065491,2025-10-15T16:36:58.127-07:00,-0.986443,0.063922,-0.067617,2025-10-15T16:36:58.131-07:00,0.089940,-0.013850,0.016384,2025-10-15T16:36:58.127-07:00
14.000000,0.000041,-0.001976,0.005346,2025-10-15T16:36:59.131-07:00,-9.762485,0.648783,-0.665422,2025-10-15T16:36:59.131-07:00,-618.004166,57.715419,78.469923,2025-10-15T16:36:59.132-07:00,-47.414401,12.282667,6.064756,2025-10-15T16:36:59.131-07:00,,,,,,,,,,,,-0.001096,-0.003788,0.003800,2025-10-15T16:36:59.135-07:00,-0.940873,0.044897,0.451760,-0.068056,-0.890876,0.015316,-0.066206,2025-10-15T16:36:59.131-07:00,-0.988049,0.063772,-0.065003,2025-10-15T16:36:59.135-07:00,0.074462,-0.025243,0.028421,2025-10-15T16:36:59.131-07:00
15.000000,0.053253,-0.019258,-0.004439,2025-10-15T16:37:00.135-07:00,-9.762937,0.647082,-0.658445,2025-10-15T16:37:00.135-07:00,-617.576065,57.661058,78.402890,2025-10-15T16:37:00.128-07:00,-46.968029,12.227118,6.013198,2025-10-15T16:37:00.135-07:00,,,,,,,,,,,,0.052288,-0.021453,-0.005816,2025-10-15T16:37:00.129-07:00,-0.936651,0.044616,0.449888,-0.067342,-0.891818,0.015143,-0.066032,2025-10-15T16:37:00.135-07:00,-0.987431,0.066210,-0.063365,2025-10-15T16:37:00.129-07:00,0.081532,0.001777,0.040302,2025-10-15T16:37:00.135-07:00
16.000000,0.080515,-0.052052,0.013760,2025-10-15T16:37:01.129-07:00,-9.708529,0.675603,-1.199053,2025-10-15T16:37:01.129-07:00,-618.954147,56.480050,76.871010,2025-10-15T16:37:01.134-07:00,-48.326605,11.067538,4.503251,2025-10-15T16:37:01.129-07:00,,,,,,,,,,,,0.079216,-0.053421,0.011792,2025-10-15T16:37:01.133-07:00,-0.820544,0.055928,0.395891,-0.122881,-0.915470,0.042570,-0.068948,2025-10-15T16:37:01.129-07:00,-0.980271,0.065067,-0.120363,2025-10-15T16:37:01.133-07:00,0.092682,-0.036970,0.021066,2025-10-15T16:37:01.129-07:00
17.000000,-0.011033,0.002590,0.009569,2025-10-15T16:37:02.133-07:00,-9.703783,0.607311,-1.278587,2025-10-15T16:37:02.133-07:00,-618.952022,56.049336,76.490060,2025-10-15T16:37:02.130-07:00,-48.333328,10.629198,4.111013,2025-10-15T16:37:02.133-07:00,,,,,,,,,,,,-0.011764,0.000204,0.007967,2025-10-15T16:37:02.127-07:00,-0.800598,0.053960,0.386798,-0.131007,-0.919306,0.048212,-0.061969,2025-10-15T16:37:02.133-07:00,-0.983550,0.058911,-0.127807,2025-10-15T16:37:02.127-07:00,0.063780,-0.029914,0.028909,2025-10-15T16:37:02.133-07:00
18.000000,0.009980,0.007195,0.004007,2025-10-15T16:37:03.130-07:00,-9.717826,0.544914,-1.198515,2025-10-15T16:37:03.130-07:00,-618.915573,55.795678,76.843234,2025-10-15T16:37:03.136-07:00,-48.308085,10.372147,4.456070,2025-10-15T16:37:03.130-07:00,392.249405,-1.000000,-1.000000,33.304023,422.679108,-1.000000,15.495549,8.748709,-111.680061,-1.000000,2025-10-15T16:37:03.257-07:00,0.008722,0.005366,0.002113,2025-10-15T16:37:03.131-07:00,-0.805317,0.049542,0.389408,-0.122712,-0.918603,0.045520,-0.055595,2025-10-15T16:37:03.130-07:00,-0.981730,0.052076,-0.120049,2025-10-15T16:37:03.131-07:00,0.091449,-0.034804,0.021383,2025-10-15T16:37:03.130-07:00
19.000000,-0.009426,0.002304,-0.001243,2025-10-15T16:37:04.134-07:00,-9.722199,0.525796,-1.171558,2025-10-15T16:37:04.134-07:00,-618.918379,55.749049,76.920209,2025-10-15T16:37:04.132-07:00,-48.304284,10.323023,4.540013,2025-10-15T16:37:04.134-07:00,,,,,,,,,,,,-0.010630,0.000205,-0.002949,2025-10-15T16:37:04.136-07:00,-0.806373,0.048127,0.390026,-0.119925,-0.918461,0.044598,-0.053642,2025-10-15T16:37:04.134-07:00,-0.983219,0.050081,-0.116556,2025-10-15T16:37:04.136-07:00,0.078267,-0.034262,0.027258,2025-10-15T16:37:04.134-07:00
20.000000,0.024330,-0.006105,0.000226,2025-10-15T16:37:05.129-07:00,-9.721598,0.535140,-1.172256,2025-10-15T16:37:05.129-07:00,-618.168135,55.856016,76.863814,2025-10-15T16:37:05.128-07:00,-47.548989,10.436911,4.483115,2025-10-15T16:37:05.129-07:00,,,,,,,,,,,,0.023400,-0.008084,-0.001551,2025-10-15T16:37:05.130-07:00,-0.813239,0.048731,0.393143,-0.120003,-0.917112,0.044281,-0.054596,2025-10-15T16:37:05.129-07:00,-0.982888,0.052308,-0.116635,2025-10-15T16:37:05.130-07:00,0.079942,-0.021129,0.028159,2025-10-15T16:37:05.129-07:00
21.000000,-0.000501,-0.004474,-0.000432,2025-10-15T16:37:06.133-07:00,-9.712264,0.512694,-1.256222,2025-10-15T16:37:06.133-07:00,-618.668905,55.676043,76.728170,2025-10-15T16:37:06.134-07:00,-48.045270,10.254227,4.356711,2025-10-15T16:37:06.133-07:00,,,,,,,,,,,,-0.001886,-0.006353,-0.002204,2025-10-15T16:37:06.134-07:00,-0.801336,0.049093,0.387541,-0.128630,-0.919223,0.048985,-0.052304,2025-10-15T16:37:06.133-07:00,-0.981831,0.048635,-0.123387,2025-10-15T16:37:06.134-07:00,0.085508,-0.035216,0.046977,2025-10-15T16:37:06.133-07:00
22.000000,0.009945,-0.003322,0.003843,2025-10-15T16:37:07.127-07:00,-9.713063,0.578211,-1.220865,2025-10-15T16:37:07.127-07:00,-618.954879,55.859343,76.875170,2025-10-15T16:37:07.130-07:00,-48.324081,10.444352,4.505887,2025-10-15T16:37:07.127-07:00,,,,,,,,,,,,0.008620,-0.005206,0.001971,2025-10-15T16:37:07.128-07:00,-0.787058,0.051134,0.380830,-0.125037,-0.922057,0.046391,-0.058995,2025-10-15T16:37:07.127-07:00,-0.983297,0.055350,-0.121625,2025-10-15T16:37:07.128-07:00,0.063992,-0.034019,0.031958,2025-10-15T16:37:07.127-07:00
23.000000,0.000135,0.008313,-0.003923,2025-10-15T16:37:08.131-07:00,-9.712059,0.567931,-1.234193,2025-10-15T16:37:08.131-07:00,-618.998490,55.815697,76.962366,2025-10-15T16:37:08.136-07:00,-48.347599,10.392809,4.578447,2025-10-15T16:37:08.131-07:00,,,,,,,,,,,,-0.000929,0.006408,-0.006200,2025-10-15T16:37:08.132-07:00,-0.787670,0.050923,0.381116,-0.126401,-0.921915,0.047205,-0.057945,2025-10-15T16:37:08.131-07:00,-0.981508,0.055300,-0.122014,2025-10-15T16:37:08.132-07:00,0.085966,-0.023426,0.039650,2025-10-15T16:37:08.131-07:00
24.000000,0.005946,-0.001744,0.000093,2025-10-15T16:37:09.135-07:00,-9.714030,0.573081,-1.216324,2025-10-15T16:37:09.135-07:00,-618.801775,55.894371,76.804822,2025-10-15T16:37:09.132-07:00,-48.168154,10.474146,4.428284,2025-10-15T16:37:09.135-07:00,392.249405,-1.000000,-1.000000,33.304023,422.679108,-1.000000,15.512470,8.764826,-111.680061,-1.000000,2025-10-15T16:37:09.499-07:00,0.004476,-0.003867,-0.001367,2025-10-15T16:37:09.127-07:00,-0.792756,0.050932,0.383488,-0.124565,-0.920984,0.046128,-0.058471,2025-10-15T16:37:09.135-07:00,-0.981764,0.054886,-0.118422,2025-10-15T16:37:09.127-07:00,0.084585,-0.032997,0.053484,2025-10-15T16:37:09.135-07:00
25.000000,0.054564,-0.014750,-0.010651,2025-10-15T16:37:10.130-07:00,-9.711562,0.599485,-1.221680,2025-10-15T16:37:10.130-07:00,-618.177606,55.911025,76.962365,2025-10-15T16:37:10.128-07:00,-47.535894,10.486141,4.590094,2025-10-15T16:37:10.130-07:00,,,,,,,,,,,,0.053597,-0.016883,-0.012242,2025-10-15T16:37:10.131-07:00,-0.787771,0.052161,0.381067,-0.125140,-0.921888,0.046022,-0.061169,2025-10-15T16:37:10.130-07:00,-0.982128,0.059247,-0.118700,2025-10-15T16:37:10.131-07:00,0.074637,-0.013179,0.057894,2025-10-15T16:37:10.130-07:00
26.000000,0.048042,-0.023426,0.026424,2025-10-15T16:37:11.134-07:00,-9.682661,0.568471,-1.443146,2025-10-15T16:37:11.134-07:00,-619.045652,54.709427,76.477395,2025-10-15T16:37:11.134-07:00,-48.485797,9.299037,4.133660,2025-10-15T16:37:11.134-07:00,,,,,,,,,,,,0.046538,-0.025407,0.024413,2025-10-15T16:37:11.135-07:00,-0.700829,0.052494,0.340180,-0.147953,-0.936948,0.059457,-0.058003,2025-10-15T16:37:11.134-07:00,-0.978308,0.054408,-0.145816,2025-10-15T16:37:11.135-07:00,0.083514,-0.033045,0.008647,2025-10-15T16:37:11.134-07:00
27.000000,0.017280,-0.000667,0.010191,2025-10-15T16:37:12.128-07:00,-9.677373,0.559365,-1.484404,2025-10-15T16:37:12.128-07:00,-618.969917,54.291170,76.482177,2025-10-15T16:37:12.130-07:00,-48.433094,8.869769,4.117469,2025-10-15T16:37:12.128-07:00,,,,,,,,,,,,0.016113,-0.002605,0.008434,2025-10-15T16:37:12.129-07:00,-0.663063,0.051637,0.322363,-0.152203,-0.943119,0.062594,-0.057071,2025-10-15T16:37:12.128-07:00,-0.980006,0.052877,-0.146309,2025-10-15T16:37:12.129-07:00,0.068054,-0.040562,0.060412,2025-10-15T16:37:12.128-07:00
28.000000,-0.002666,-0.003768,-0.005643,2025-10-15T16:37:13.132-07:00,-9.671641,0.515271,-1.537468,2025-10-15T16:37:13.132-07:00,-619.208166,54.292578,76.260147,2025-10-15T16:37:13.136-07:00,-48.670839,8.860635,3.901348,2025-10-15T16:37:13.132-07:00,,,,,,,,,,,,-0.004152,-0.005816,-0.008141,2025-10-15T16:37:13.133-07:00,-0.663082,0.050394,0.322420,-0.157648,-0.942951,0.065899,-0.052567,2025-10-15T16:37:13.132-07:00,-0.978998,0.047808,-0.150661,2025-10-15T16:37:13.133-07:00,0.068907,-0.044192,0.060747,2025-10-15T16:37:13.132-07:00
29.000000,0.002471,0.011096,0.015074,2025-10-15T16:37:14.136-07:00,-9.680090,0.505676,-1.485099,2025-10-15T16:37:14.136-07:00,-618.565869,54.414522,76.406518,2025-10-15T16:37:14.132-07:00,-48.022682,9.000182,4.043255,2025-10-15T16:37:14.136-07:00,,,,,,,,,,,,0.001817,0.009026,0.013936,2025-10-15T16:37:14.128-07:00,-0.674365,0.049409,0.327902,-0.152232,-0.941281,0.063238,-0.051588,2025-10-15T16:37:14.136-07:00,-0.981021,0.049852,-0.145714,2025-10-15T16:37:14.128-07:00,0.064177,-0.017768,0.057161,2025-10-15T16:37:14.136-07:00
30.000000,0.111167,0.029516,0.088956,2025-10-15T16:37:15.131-07:00,-9.729491,-0.124231,-1.193596,2025-10-15T16:37:15.131-07:00,-619.630079,51.022716,77.875371,2025-10-15T16:37:15.128-07:00,-49.275756,5.659416,5.459376,2025-10-15T16:37:15.131-07:00,392.247161,-1.000000,-1.000000,33.304023,422.676864,-1.000000,10.374864,52.565502,-111.680060,-1.000000,2025-10-15T16:37:15.474-07:00,0.109808,0.027504,0.086890,2025-10-15T16:37:15.132-07:00,-0.654675,0.013622,0.321154,-0.122067,-0.944797,0.059648,0.012671,2025-10-15T16:37:15.131-07:00,-0.980820,-0.014560,-0.114669,2025-10-15T16:37:15.132-07:00,0.100384,-0.009186,0.075947,2025-10-15T16:37:15.131-07:00
31.000000,-0.025874,-0.024634,-0.020784,2025-10-15T16:37:16.135-07:00,-9.716326,-0.269526,-1.296116,2025-10-15T16:37:16.135-07:00,-619.881510,49.210213,77.944639,2025-10-15T16:37:16.134-07:00,-49.731185,3.809362,5.554859,2025-10-15T16:37:16.135-07:00,,,,,,,,,,,,-0.027555,-0.026746,-0.022583,2025-10-15T16:37:16.136-07:00,-0.567928,0.005400,0.280382,-0.132612,-0.957481,0.067439,0.027488,2025-10-15T16:37:16.135-07:00,-0.981283,-0.033834,-0.135941,2025-10-15T16:37:16.136-07:00,0.090672,-0.062567,-0.048904,2025-10-15T16:37:16.135-07:00
32.000000,0.022533,-0.000194,-0.005705,2025-10-15T16:37:17.129-07:00,-9.693796,-0.193478,-1.469919,2025-10-15T16:37:17.129-07:00,-620.124221,49.665717,76.951543,2025-10-15T16:37:17.130-07:00,-49.842855,4.270788,4.568152,2025-10-15T16:37:17.129-07:00,392.245704,1.645176,-1.000000,33.304023,422.675407,-1.000000,13.068520,73.739906,-111.680060,0.000000,2025-10-15T16:37:17.474-07:00,0.021407,-0.002053,-0.007858,2025-10-15T16:37:17.130-07:00,-0.571791,0.011758,0.281913,-0.150489,-0.956428,0.074894,0.019731,2025-10-15T16:37:17.129-07:00,-0.977463,-0.022845,-0.139862,2025-10-15T16:37:17.130-07:00,0.113247,-0.031528,0.095703,2025-10-15T16:37:17.129-07:00
33.000000,0.014229,0.003624,-0.005208,2025-10-15T16:37:18.133-07:00,-9.701094,-0.094627,-1.430551,2025-10-15T16:37:18.133-07:00,-620.097118,49.945481,77.199722,2025-10-15T16:37:18.136-07:00,-49.764518,4.553164,4.816480,2025-10-15T16:37:18.133-07:00,377.875039,-1.000000,-1.000000,33.304026,408.304742,-1.000000,13.330192,78.295471,-111.680057,-1.000000,2025-10-15T16:37:18.474-07:00,0.013048,0.001568,-0.006898,2025-10-15T16:37:18.135-07:00,-0.556146,0.015452,0.274104,-0.146408,-0.958893,0.071653,0.009650,2025-10-15T16:37:18.133-07:00,-0.983166,-0.013843,-0.140028,2025-10-15T16:37:18.135-07:00,0.057649,-0.038785,0.057407,2025-10-15T16:37:18.133-07:00
34.000000,-0.021598,0.029419,-0.003451,2025-10-15T16:37:19.127-07:00,-9.713937,-0.048660,-1.339751,2025-10-15T16:37:19.127-07:00,-619.361347,50.207296,77.724001,2025-10-15T16:37:19.132-07:00,-49.067413,4.824745,5.321702,2025-10-15T16:37:19.127-07:00,376.462602,-1.000000,-1.000000,33.304029,406.892304,-1.000000,13.002316,193.541870,-111.680054,-1.000000,2025-10-15T16:37:19.474-07:00,-0.022866,0.027475,-0.005404,2025-10-15T16:37:19.129-07:00,-0.558504,0.016471,0.275139,-0.137055,-0.958931,0.066515,0.004962,2025-10-15T16:37:19.127-07:00,-0.979706,-0.008347,-0.131745,2025-10-15T16:37:19.129-07:00,0.113808,-0.035915,0.052667,2025-10-15T16:37:19.127-07:00
35.000000,-0.020971,0.013155,-0.013861,2025-10-15T16:37:20.132-07:00,-9.744640,0.045291,-1.098294,2025-10-15T16:37:20.132-07:00,-619.808625,50.720000,78.972271,2025-10-15T16:37:20.127-07:00,-49.640471,5.332636,6.578017,2025-10-15T16:37:20.132-07:00,,,,,,,,,,,,-0.020461,0.011084,-0.015462,2025-10-15T16:37:20.133-07:00,-0.571805,0.018029,0.281451,-0.112234,-0.957918,0.053162,-0.004618,2025-10-15T16:37:20.132-07:00,-0.985494,-0.001421,-0.112213,2025-10-15T16:37:20.133-07:00,0.087372,-0.058400,0.005630,2025-10-15T16:37:20.132-07:00
36.000000,-0.002384,-0.002622,-0.005210,2025-10-15T16:37:21.136-07:00,-9.758583,0.103235,-0.963892,2025-10-15T16:37:21.136-07:00,-619.785009,51.285103,79.377845,2025-10-15T16:37:21.134-07:00,-49.596849,5.897400,6.992231,2025-10-15T16:37:21.136-07:00,,,,,,,,,,,,-0.005741,-0.004725,-0.007471,2025-10-15T16:37:21.127-07:00,-0.593356,0.019413,0.291738,-0.098454,-0.955215,0.045521,-0.010527,2025-10-15T16:37:21.136-07:00,-0.986657,0.006676,-0.087034,2025-10-15T16:37:21.127-07:00,0.082652,-0.038427,0.108838,2025-10-15T16:37:21.136-07:00
37.000000,0.013245,-0.007613,-0.009031,2025-10-15T16:37:22.130-07:00,-9.752537,0.147647,-1.017757,2025-10-15T16:37:22.130-07:00,-619.469217,51.681947,79.042328,2025-10-15T16:37:22.130-07:00,-49.304839,6.289058,6.660134,2025-10-15T16:37:22.130-07:00,,,,,,,,,,,,0.012130,-0.009859,-0.011003,2025-10-15T16:37:22.131-07:00,-0.594910,0.022418,0.292309,-0.103982,-0.954880,0.047481,-0.015056,2025-10-15T16:37:22.130-07:00,-0.986829,0.010828,-0.097848,2025-10-15T16:37:22.131-07:00,0.069567,-0.038716,0.061864,2025-10-15T16:37:22.130-07:00
38.000000,0.317092,-0.046664,-0.029963,2025-10-15T16:37:23.134-07:00,-9.688007,0.752972,-1.295651,2025-10-15T16:37:23.134-07:00,-619.448783,52.643343,78.581775,2025-10-15T16:37:23.136-07:00,-49.248549,7.232247,6.238350,2025-10-15T16:37:23.134-07:00,376.305680,-1.000000,-1.000000,33.304028,406.735383,-1.000000,11.085080,176.762711,-111.680056,-1.000000,2025-10-15T16:37:23.474-07:00,0.315831,-0.048667,-0.031867,2025-10-15T16:37:23.136-07:00,-0.428624,0.051458,0.209252,-0.132961,-0.973515,0.057172,-0.076879,2025-10-15T16:37:23.134-07:00,-0.977067,0.068828,-0.122944,2025-10-15T16:37:23.136-07:00,0.101195,-0.081917,0.082815,2025-10-15T16:37:23.134-07:00
39.000000,0.037320,0.001814,-0.007465,2025-10-15T16:37:24.129-07:00,-9.672834,1.031832,-1.240394,2025-10-15T16:37:24.129-07:00,-619.374335,51.666073,79.268944,2025-10-15T16:37:24.132-07:00,-49.289282,6.248358,6.924631,2025-10-15T16:37:24.129-07:00,,,,,,,,,,,,0.035753,-0.000249,-0.009323,2025-10-15T16:37:24.130-07:00,-0.252649,0.060178,0.122223,-0.127540,-0.989045,0.056510,-0.105414,2025-10-15T16:37:24.129-07:00,-0.980121,0.097672,-0.125450,2025-10-15T16:37:24.130-07:00,0.052708,-0.069438,0.010034,2025-10-15T16:37:24.129-07:00
40.000000,0.005140,-0.003199,-0.011011,2025-10-15T16:37:25.133-07:00,-9.668385,1.121152,-1.196593,2025-10-15T16:37:25.133-07:00,-619.393349,51.994899,79.578883,2025-10-15T16:37:25.127-07:00,-49.292690,6.574448,7.249892,2025-10-15T16:37:25.133-07:00,,,,,,,,,,,,0.003869,-0.005451,-0.012762,2025-10-15T16:37:25.134-07:00,-0.242130,0.064150,0.116845,-0.123137,-0.989585,0.054077,-0.114578,2025-10-15T16:37:25.133-07:00,-0.979464,0.104805,-0.117618,2025-10-15T16:37:25.134-07:00,0.062682,-0.094925,0.038099,2025-10-15T16:37:25.133-07:00
41.000000,-0.012706,0.003089,0.002496,2025-10-15T16:37:26.127-07:00,-9.668185,1.101075,-1.217940,2025-10-15T16:37:26.127-07:00,-619.291990,52.321552,79.410497,2025-10-15T16:37:26.134-07:00,-49.188405,6.902443,7.081121,2025-10-15T16:37:26.127-07:00,,,,,,,,,,,,-0.013879,0.000793,0.000715,2025-10-15T16:37:26.128-07:00,-0.265879,0.063909,0.128588,-0.125314,-0.988127,0.054530,-0.112516,2025-10-15T16:37:26.127-07:00,-0.976638,0.103005,-0.119178,2025-10-15T16:37:26.128-07:00,0.086006,-0.089415,0.052127,2025-10-15T16:37:26.127-07:00
42.000000,0.002473,0.009706,-0.000463,2025-10-15T16:37:27.131-07:00,-9.672712,1.112635,-1.170227,2025-10-15T16:37:27.131-07:00,-619.427249,52.133708,79.719471,2025-10-15T16:37:27.129-07:00,-49.330116,6.718162,7.386807,2025-10-15T16:37:27.131-07:00,,,,,,,,,,,,0.001451,0.007396,-0.001504,2025-10-15T16:37:27.133-07:00,-0.262320,0.064087,0.126948,-0.120396,-0.988459,0.052130,-0.113702,2025-10-15T16:37:27.131-07:00,-0.978916,0.106602,-0.114978,2025-10-15T16:37:27.133-07:00,0.072458,-0.066810,0.042230,2025-10-15T16:37:27.131-07:00
43.000000,0.085077,-0.033214,-0.020292,2025-10-15T16:37:28.136-07:00,-9.661308,1.201355,-1.169177,2025-10-15T16:37:28.136-07:00,-618.697456,52.387933,79.900604,2025-10-15T16:37:28.135-07:00,-48.504823,6.978063,7.578925,2025-10-15T16:37:28.136-07:00,,,,,,,,,,,,0.082608,-0.034589,-0.022960,2025-10-15T16:37:28.127-07:00,-0.243257,0.068020,0.117185,-0.120443,-0.989264,0.052259,-0.122818,2025-10-15T16:37:28.136-07:00,-0.976586,0.115039,-0.114227,2025-10-15T16:37:28.127-07:00,0.080980,-0.065997,0.047445,2025-10-15T16:37:28.136-07:00
44.000000,0.048019,0.004874,-0.021646,2025-10-15T16:37:29.130-07:00,-9.587411,1.613588,-1.281745,2025-10-15T16:37:29.130-07:00,-619.070941,53.103082,79.408870,2025-10-15T16:37:29.131-07:00,-48.850727,7.682568,7.084432,2025-10-15T16:37:29.130-07:00,,,,,,,,,,,,0.046604,0.002858,-0.023591,2025-10-15T16:37:29.131-07:00,-0.149415,0.087090,0.068756,-0.132899,-0.991994,0.059857,-0.165295,2025-10-15T16:37:29.130-07:00,-0.971294,0.154453,-0.125847,2025-10-15T16:37:29.131-07:00,0.060468,-0.099637,0.048586,2025-10-15T16:37:29.130-07:00
45.000000,-0.023980,0.003406,-0.001871,2025-10-15T16:37:30.134-07:00,-9.579463,1.724843,-1.194791,2025-10-15T16:37:30.134-07:00,-618.944049,53.669291,79.862325,2025-10-15T16:37:30.127-07:00,-48.718281,8.254772,7.556869,2025-10-15T16:37:30.134-07:00,,,,,,,,,,,,-0.025419,0.001252,-0.003801,2025-10-15T16:37:30.135-07:00,-0.144382,0.092342,0.066248,-0.124083,-0.991978,0.055242,-0.176806,2025-10-15T16:37:30.134-07:00,-0.970037,0.168002,-0.121225,2025-10-15T16:37:30.135-07:00,0.060089,-0.077437,0.003440,2025-10-15T16:37:30.134-07:00
46.000000,0.000634,-0.011897,0.003106,2025-10-15T16:37:31.128-07:00,-9.576269,1.640869,-1.330434,2025-10-15T16:37:31.128-07:00,-618.898017,53.444710,79.269551,2025-10-15T16:37:31.133-07:00,-48.682695,8.031306,6.967975,2025-10-15T16:37:31.128-07:00,,,,,,,,,,,,-0.000661,-0.013920,0.001352,2025-10-15T16:37:31.130-07:00,-0.165184,0.089143,0.076242,-0.138045,-0.991179,0.061583,-0.168114,2025-10-15T16:37:31.128-07:00,-0.972185,0.156181,-0.129007,2025-10-15T16:37:31.130-07:00,0.035561,-0.104030,0.064883,2025-10-15T16:37:31.128-07:00
47.000000,0.138358,-0.033695,-0.022623,2025-10-15T16:37:32.133-07:00,-9.555304,1.737083,-1.352006,2025-10-15T16:37:32.133-07:00,-618.084383,53.018705,79.152188,2025-10-15T16:37:32.129-07:00,-47.842326,7.589151,6.872460,2025-10-15T16:37:32.133-07:00,,,,,,,,,,,,0.137560,-0.036562,-0.024366,2025-10-15T16:37:32.134-07:00,-0.110338,0.092363,0.048543,-0.140569,-0.992097,0.065084,-0.178091,2025-10-15T16:37:32.133-07:00,-0.968381,0.168363,-0.132608,2025-10-15T16:37:32.134-07:00,0.065966,-0.087550,0.047313,2025-10-15T16:37:32.133-07:00
48.000000,0.093662,-0.036032,-0.013317,2025-10-15T16:37:33.127-07:00,-9.432393,2.158479,-1.586674,2025-10-15T16:37:33.127-07:00,-618.451741,52.966692,77.314948,2025-10-15T16:37:33.135-07:00,-48.233011,7.527469,5.079623,2025-10-15T16:37:33.127-07:00,392.249405,-1.000000,-1.000000,33.304025,422.679108,-1.000000,15.677686,8.758089,-111.680059,-1.000000,2025-10-15T16:37:33.495-07:00,0.091861,-0.037630,-0.015652,2025-10-15T16:37:33.128-07:00,0.046732,0.108334,-0.032365,-0.166675,-0.989803,0.085331,-0.221935,2025-10-15T16:37:33.127-07:00,-0.952961,0.212924,-0.155205,2025-10-15T16:37:33.128-07:00,0.085953,-0.071417,0.059172,2025-10-15T16:37:33.127-07:00
49.000000,-0.001996,0.004340,-0.007296,2025-10-15T16:37:34.131-07:00,-9.385336,2.430826,-1.473989,2025-10-15T16:37:34.131-07:00,-618.275234,53.790115,77.905888,2025-10-15T16:37:34.131-07:00,-48.175955,8.346647,5.614496,2025-10-15T16:37:34.131-07:00,,,,,,,,,,,,-0.002366,0.001735,-0.007809,2025-10-15T16:37:34.132-07:00,0.097175,0.120646,-0.057746,-0.155776,-0.987510,0.083161,-0.250490,2025-10-15T16:37:34.131-07:00,-0.950918,0.234700,-0.152958,2025-10-15T16:37:34.132-07:00,0.058500,-0.118599,-0.024491,2025-10-15T16:37:34.131-07:00
50.000000,-0.004174,0.003240,-0.026084,2025-10-15T16:37:35.136-07:00,-9.353044,2.528405,-1.512738,2025-10-15T16:37:35.136-07:00,-618.017528,54.502618,77.885319,2025-10-15T16:37:35.127-07:00,-47.998340,9.063380,5.589177,2025-10-15T16:37:35.136-07:00,,,,,,,,,,,,-0.006809,0.001444,-0.028950,2025-10-15T16:37:35.127-07:00,0.078407,0.126392,-0.049142,-0.160350,-0.987145,0.084426,-0.260784,2025-10-15T16:37:35.136-07:00,-0.949501,0.248031,-0.149684,2025-10-15T16:37:35.127-07:00,0.034985,-0.090634,0.044787,2025-10-15T16:37:35.136-07:00
51.000000,0.016162,-0.001581,-0.004521,2025-10-15T16:37:36.130-07:00,-9.328778,2.632308,-1.488182,2025-10-15T16:37:36.130-07:00,-618.037677,54.989400,77.897842,2025-10-15T16:37:36.133-07:00,-48.050186,9.548436,5.610016,2025-10-15T16:37:36.130-07:00,,,,,,,,,,,,0.014909,-0.003763,-0.006525,2025-10-15T16:37:36.131-07:00,0.081697,0.131726,-0.051028,-0.158193,-0.986420,0.083736,-0.271754,2025-10-15T16:37:36.130-07:00,-0.945205,0.258506,-0.145520,2025-10-15T16:37:36.131-07:00,0.058537,-0.093356,0.060326,2025-10-15T16:37:36.130-07:00
52.000000,0.009579,0.001255,-0.012468,2025-10-15T16:37:37.134-07:00,-9.310922,2.725629,-1.430543,2025-10-15T16:37:37.134-07:00,-617.465430,55.338428,78.173075,2025-10-15T16:37:37.129-07:00,-47.494317,9.899931,5.885531,2025-10-15T16:37:37.134-07:00,,,,,,,,,,,,0.008072,-0.000960,-0.014446,2025-10-15T16:37:37.135-07:00,0.094046,0.136252,-0.057080,-0.152447,-0.985629,0.081892,-0.281647,2025-10-15T16:37:37.134-07:00,-0.943323,0.268278,-0.142975,2025-10-15T16:37:37.135-07:00,0.057121,-0.089217,0.028593,2025-10-15T16:37:37.134-07:00
53.000000,0.801998,-0.294865,-0.001673,2025-10-15T16:37:38.128-07:00,-8.977924,3.598267,-1.532673,2025-10-15T16:37:38.128-07:00,-617.298824,55.645639,75.107757,2025-10-15T16:37:38.135-07:00,-47.418666,10.222727,2.903952,2025-10-15T16:37:38.128-07:00,,,,,,,,,,,,0.801916,-0.297277,-0.003508,2025-10-15T16:37:38.130-07:00,0.424246,0.163044,-0.218608,-0.169038,-0.944241,0.122169,-0.376199,2025-10-15T16:37:38.128-07:00,-0.906822,0.360375,-0.153145,2025-10-15T16:37:38.130-07:00,0.081269,-0.063848,0.027935,2025-10-15T16:37:38.128-07:00
54.000000,0.662449,-0.015173,0.174156,2025-10-15T16:37:39.133-07:00,-9.238466,3.151567,-0.019533,2025-10-15T16:37:39.133-07:00,-616.155299,47.346194,73.007963,2025-10-15T16:37:39.131-07:00,-46.701044,1.997052,0.743919,2025-10-15T16:37:39.133-07:00,,,,,,,,,,,,0.661016,-0.017143,0.172203,2025-10-15T16:37:39.134-07:00,1.328036,0.131431,-0.606121,-0.003755,-0.771184,0.100579,-0.328080,2025-10-15T16:37:39.133-07:00,-0.938500,0.311754,-0.021965,2025-10-15T16:37:39.134-07:00,0.009834,-0.089706,-0.207282,2025-10-15T16:37:39.133-07:00
55.000000,0.147699,-0.058660,0.016973,2025-10-15T16:37:40.127-07:00,-9.520802,2.199363,0.815873,2025-10-15T16:37:40.127-07:00,-615.302556,42.918814,71.661022,2025-10-15T16:37:40.127-07:00,-45.940276,-2.500824,-0.550601,2025-10-15T16:37:40.127-07:00,,,,,,,,,,,,0.145388,-0.060768,0.015422,2025-10-15T16:37:40.128-07:00,1.768895,0.104239,-0.764691,0.085476,-0.632660,0.060235,-0.226207,2025-10-15T16:37:40.127-07:00,-0.969702,0.211538,0.060435,2025-10-15T16:37:40.128-07:00,0.008604,-0.123981,-0.229338,2025-10-15T16:37:40.127-07:00
56.000000,-0.022172,-0.010512,0.003076,2025-10-15T16:37:41.131-07:00,-9.541909,2.197786,0.534950,2025-10-15T16:37:41.131-07:00,-615.033085,43.059184,69.936250,2025-10-15T16:37:41.133-07:00,-45.596740,-2.358435,-2.294875,2025-10-15T16:37:41.131-07:00,,,,,,,,,,,,-0.025076,-0.011539,-0.000698,2025-10-15T16:37:41.132-07:00,1.794028,0.092083,-0.774181,0.056003,-0.622167,0.070744,-0.226037,2025-10-15T16:37:41.131-07:00,-0.964145,0.213431,0.033912,2025-10-15T16:37:41.132-07:00,0.088391,-0.103593,-0.198261,2025-10-15T16:37:41.131-07:00
57.000000,0.002658,0.006207,-0.016097,2025-10-15T16:37:42.133-07:00,-9.546315,2.173028,0.559364,2025-10-15T16:37:42.133-07:00,-615.060868,43.015505,70.032117,2025-10-15T16:37:42.129-07:00,-45.562447,-2.403018,-2.212866,2025-10-15T16:37:42.133-07:00,,,,,,,,,,,,0.000657,0.003299,-0.016816,2025-10-15T16:37:42.127-07:00,1.780324,0.092731,-0.769935,0.058529,-0.627624,0.068311,-0.223445,2025-10-15T16:37:42.133-07:00,-0.966908,0.212538,0.038671,2025-10-15T16:37:42.127-07:00,0.070222,-0.091839,-0.181098,2025-10-15T16:37:42.133-07:00
58.000000,0.057298,-0.009176,0.031923,2025-10-15T16:37:43.127-07:00,-9.537547,2.203273,0.589188,2025-10-15T16:37:43.127-07:00,-614.342429,43.105432,70.449505,2025-10-15T16:37:43.135-07:00,-44.822212,-2.302134,-1.773208,2025-10-15T16:37:43.127-07:00,,,,,,,,,,,,0.057633,-0.010861,0.030769,2025-10-15T16:37:43.131-07:00,1.768379,0.095346,-0.765846,0.061697,-0.632231,0.067963,-0.226610,2025-10-15T16:37:43.127-07:00,-0.968446,0.210087,0.049142,2025-10-15T16:37:43.131-07:00,0.047588,-0.137871,-0.098774,2025-10-15T16:37:43.127-07:00
59.000000,0.201100,-0.046643,0.092817,2025-10-15T16:37:44.131-07:00,-9.724939,0.888333,0.757118,2025-10-15T16:37:44.131-07:00,-614.256741,38.208937,68.927156,2025-10-15T16:37:44.131-07:00,-44.591609,-7.170668,-3.258261,2025-10-15T16:37:44.131-07:00,,,,,,,,,,,,0.199635,-0.048825,0.090011,2025-10-15T16:37:44.135-07:00,1.950933,0.057957,-0.824804,0.077695,-0.560732,0.015324,-0.090809,2025-10-15T16:37:44.131-07:00,-0.977274,0.092260,0.059579,2025-10-15T16:37:44.135-07:00,0.134952,0.024139,-0.178799,2025-10-15T16:37:44.131-07:00
60.000000,-0.040713,0.006445,-0.043115,2025-10-15T16:37:45.136-07:00,-9.732048,1.120330,0.357643,2025-10-15T16:37:45.136-07:00,-614.163939,39.741116,66.590087,2025-10-15T16:37:45.127-07:00,-44.468957,-5.670926,-5.597539,2025-10-15T16:37:45.136-07:00,392.249405,-1.000000,-1.000000,33.304023,422.679108,-1.000000,17.218343,8.783824,-111.680061,-1.000000,2025-10-15T16:37:45.493-07:00,-0.041821,0.003579,-0.044056,2025-10-15T16:37:45.129-07:00,1.997183,0.046496,-0.838433,0.036756,-0.541321,0.038056,-0.114532,2025-10-15T16:37:45.136-07:00,-0.987945,0.110220,0.013451,2025-10-15T16:37:45.129-07:00,0.043894,-0.038188,-0.219942,2025-10-15T16:37:45.136-07:00
61.000000,-0.002520,0.008726,-0.006602,2025-10-15T16:37:46.130-07:00,-9.699946,1.361533,0.472579,2025-10-15T16:37:46.130-07:00,-614.302475,40.311795,67.796037,2025-10-15T16:37:46.133-07:00,-44.658754,-5.094823,-4.421393,2025-10-15T16:37:46.130-07:00,,,,,,,,,,,,-0.004523,0.007883,-0.009215,2025-10-15T16:37:46.134-07:00,1.952173,0.059082,-0.825103,0.048679,-0.560138,0.044018,-0.139289,2025-10-15T16:37:46.130-07:00,-0.974927,0.131404,0.035818,2025-10-15T16:37:46.134-07:00,0.135694,-0.076110,-0.131369,2025-10-15T16:37:46.130-07:00
62.000000,0.007137,0.019366,0.032234,2025-10-15T16:37:47.134-07:00,-9.715651,1.177229,0.614126,2025-10-15T16:37:47.134-07:00,-614.346292,39.734438,68.122063,2025-10-15T16:37:47.129-07:00,-44.654355,-5.669645,-4.086723,2025-10-15T16:37:47.134-07:00,,,,,,,,,,,,0.006596,0.015750,0.030738,2025-10-15T16:37:47.128-07:00,1.963378,0.059574,-0.828454,0.063118,-0.555890,0.032471,-0.120340,2025-10-15T16:37:47.134-07:00,-0.984200,0.108422,0.044168,2025-10-15T16:37:47.128-07:00,0.069632,-0.115685,-0.178035,2025-10-15T16:37:47.134-07:00
63.000000,-0.015805,0.015494,-0.003802,2025-10-15T16:37:48.128-07:00,-9.716995,1.113705,0.712874,2025-10-15T16:37:48.128-07:00,-614.412926,39.452114,68.640537,2025-10-15T16:37:48.135-07:00,-44.722311,-5.956369,-3.583012,2025-10-15T16:37:48.128-07:00,,,,,,,,,,,,-0.016774,0.012762,-0.004954,2025-10-15T16:37:48.132-07:00,1.961473,0.061994,-0.827841,0.073233,-0.556864,0.026886,-0.113812,2025-10-15T16:37:48.128-07:00,-0.979940,0.107352,0.059411,2025-10-15T16:37:48.132-07:00,0.101028,-0.059138,-0.134662,2025-10-15T16:37:48.128-07:00
64.000000,0.075648,0.006699,-0.006717,2025-10-15T16:37:49.133-07:00,-9.707966,1.134601,0.793337,2025-10-15T16:37:49.133-07:00,-613.853658,39.577395,69.056000,2025-10-15T16:37:49.131-07:00,-44.130282,-5.832036,-3.156521,2025-10-15T16:37:49.133-07:00,,,,,,,,,,,,0.073439,0.005919,-0.010574,2025-10-15T16:37:49.127-07:00,1.967830,0.065971,-0.829205,0.081538,-0.554296,0.025707,-0.115958,2025-10-15T16:37:49.133-07:00,-0.981725,0.108189,0.065976,2025-10-15T16:37:49.127-07:00,0.082379,-0.070087,-0.148585,2025-10-15T16:37:49.133-07:00
65.000000,0.051443,-0.027241,-0.000426,2025-10-15T16:37:50.127-07:00,-9.712511,1.072434,0.824523,2025-10-15T16:37:50.127-07:00,-614.072213,39.678603,68.289404,2025-10-15T16:37:50.127-07:00,-44.378065,-5.720845,-3.892215,2025-10-15T16:37:50.127-07:00,,,,,,,,,,,,0.049707,-0.031018,-0.001263,2025-10-15T16:37:50.131-07:00,2.053486,0.064482,-0.852349,0.084690,-0.518339,0.024922,-0.109579,2025-10-15T16:37:50.127-07:00,-0.983637,0.096608,0.069251,2025-10-15T16:37:50.131-07:00,0.064463,-0.125836,-0.139266,2025-10-15T16:37:50.127-07:00
66.000000,-0.024781,0.012720,-0.000399,2025-10-15T16:37:51.131-07:00,-9.711105,1.153230,0.729753,2025-10-15T16:37:51.131-07:00,-614.102149,39.884290,67.963382,2025-10-15T16:37:51.133-07:00,-44.397188,-5.510211,-4.244702,2025-10-15T16:37:51.131-07:00,376.305664,-1.000000,-1.000000,33.304025,406.735367,-1.000000,13.153616,70.603760,-111.680060,-1.000000,2025-10-15T16:37:51.474-07:00,-0.027029,0.010960,-0.002425,2025-10-15T16:37:51.135-07:00,2.039578,0.062702,-0.848750,0.075006,-0.524143,0.030547,-0.117870,2025-10-15T16:37:51.131-07:00,-0.980620,0.109568,0.066419,2025-10-15T16:37:51.135-07:00,0.093588,-0.078379,-0.080104,2025-10-15T16:37:51.131-07:00
67.000000,-0.007039,-0.002502,-0.012668,2025-10-15T16:37:52.136-07:00,-9.700312,1.204842,0.786901,2025-10-15T16:37:52.136-07:00,-613.972955,40.212982,68.337145,2025-10-15T16:37:52.129-07:00,-44.326877,-5.198448,-3.864269,2025-10-15T16:37:52.136-07:00,376.305664,-1.000000,-1.000000,33.304024,406.735367,-1.000000,13.860625,68.641357,-111.680059,-1.000000,2025-10-15T16:37:52.474-07:00,-0.007701,-0.004271,-0.015265,2025-10-15T16:37:52.129-07:00,2.016656,0.066963,-0.842310,0.080942,-0.533927,0.030487,-0.123172,2025-10-15T16:37:52.136-07:00,-0.978927,0.111830,0.068495,2025-10-15T16:37:52.129-07:00,0.101396,-0.105517,-0.114919,2025-10-15T16:37:52.136-07:00
68.000000,0.029148,0.014480,0.019808,2025-10-15T16:37:53.130-07:00,-9.693049,1.229737,0.831641,2025-10-15T16:37:53.130-07:00,-613.436216,40.485674,68.425054,2025-10-15T16:37:53.135-07:00,-43.755504,-4.898345,-3.783585,2025-10-15T16:37:53.130-07:00,376.305664,-1.000000,-1.000000,33.304026,406.735367,-1.000000,14.567251,49.332653,-111.680062,-1.000000,2025-10-15T16:37:53.474-07:00,0.024934,0.014052,0.019420,2025-10-15T16:37:53.134-07:00,2.026378,0.069459,-0.844616,0.085583,-0.529875,0.030678,-0.125731,2025-10-15T16:37:53.130-07:00,-0.977697,0.117657,0.075442,2025-10-15T16:37:53.134-07:00,0.104224,-0.078248,-0.092804,2025-10-15T16:37:53.130-07:00
69.000000,0.082308,-0.037116,-0.006913,2025-10-15T16:37:54.134-07:00,-9.723588,1.077928,0.673698,2025-10-15T16:37:54.134-07:00,-613.859231,40.258216,66.803956,2025-10-15T16:37:54.131-07:00,-44.021942,-5.141502,-5.400391,2025-10-15T16:37:54.134-07:00,376.305664,-1.000000,-1.000000,33.304028,406.735367,-1.000000,11.996603,72.385635,-111.680063,-1.000000,2025-10-15T16:37:54.474-07:00,0.083322,-0.040701,-0.009607,2025-10-15T16:37:54.128-07:00,2.115452,0.057082,-0.868426,0.069174,-0.491450,0.030960,-0.110142,2025-10-15T16:37:54.134-07:00,-0.985417,0.102377,0.060674,2025-10-15T16:37:54.128-07:00,0.053140,-0.073359,-0.083351,2025-10-15T16:37:54.134-07:00
70.000000,-0.015881,0.005338,-0.010178,2025-10-15T16:37:55.128-07:00,-9.719333,1.131355,0.650007,2025-10-15T16:37:55.128-07:00,-613.949985,40.355386,66.870979,2025-10-15T16:37:55.127-07:00,-44.093142,-5.044661,-5.336566,2025-10-15T16:37:55.128-07:00,376.305664,1.992499,-1.000000,33.304029,406.735367,-1.000000,13.253618,68.937523,-111.680067,0.000000,2025-10-15T16:37:55.474-07:00,-0.017395,0.002547,-0.010907,2025-10-15T16:37:55.132-07:00,2.111867,0.057446,-0.867451,0.066779,-0.492987,0.033839,-0.115625,2025-10-15T16:37:55.128-07:00,-0.982396,0.103820,0.053254,2025-10-15T16:37:55.132-07:00,0.094842,-0.118596,-0.127592,2025-10-15T16:37:55.128-07:00
71.000000,-0.013562,0.003115,-0.014152,2025-10-15T16:37:56.133-07:00,-9.709024,1.188643,0.699517,2025-10-15T16:37:56.133-07:00,-613.869455,40.564284,67.118302,2025-10-15T16:37:56.133-07:00,-44.037412,-4.839105,-5.085546,2025-10-15T16:37:56.133-07:00,,,,,,,,,,,,-0.015344,0.001107,-0.017696,2025-10-15T16:37:56.137-07:00,2.090065,0.061494,-0.861686,0.071924,-0.502510,0.034470,-0.121508,2025-10-15T16:37:56.133-07:00,-0.977379,0.111248,0.062545,2025-10-15T16:37:56.137-07:00,0.120498,-0.093432,-0.088821,2025-10-15T16:37:56.133-07:00
72.000000,0.173158,-0.017078,-0.060152,2025-10-15T16:37:57.127-07:00,-9.666672,1.494142,0.635302,2025-10-15T16:37:57.127-07:00,-613.169510,42.400011,66.416561,2025-10-15T16:37:57.129-07:00,-43.374057,-3.047769,-5.789896,2025-10-15T16:37:57.127-07:00,376.305829,2.223699,-1.000000,33.304028,406.735532,-1.000000,12.902113,61.525379,-111.680069,0.000000,2025-10-15T16:37:57.475-07:00,0.172496,-0.016593,-0.061329,2025-10-15T16:37:57.131-07:00,2.137306,0.064988,-0.871809,0.065595,-0.481541,0.051269,-0.153021,2025-10-15T16:37:57.127-07:00,-0.997873,0.137290,0.063532,2025-10-15T16:37:57.131-07:00,-0.124916,-0.144807,-0.003969,2025-10-15T16:37:57.127-07:00
73.000000,0.401626,-0.125214,0.030470,2025-10-15T16:37:58.131-07:00,-9.412523,1.868041,1.696623,2025-10-15T16:37:58.131-07:00,-614.824617,45.780878,68.877962,2025-10-15T16:37:58.135-07:00,-45.512259,0.368070,-3.316404,2025-10-15T16:37:58.131-07:00,376.300544,2.202746,-1.000000,33.304030,406.730247,-1.000000,14.039362,62.049438,-111.680071,0.000000,2025-10-15T16:37:58.475-07:00,0.393136,-0.120768,0.034250,2025-10-15T16:37:58.135-07:00,2.382157,0.118597,-0.910058,0.179040,-0.372985,0.051641,-0.192222,2025-10-15T16:37:58.131-07:00,-0.928366,0.219378,0.154434,2025-10-15T16:37:58.135-07:00,0.306397,0.270222,-0.197851,2025-10-15T16:37:58.131-07:00
74.000000,0.391765,-0.077909,-0.005993,2025-10-15T16:37:59.136-07:00,-9.695797,0.495490,-0.946154,2025-10-15T16:37:59.136-07:00,-611.610325,48.262506,53.674351,2025-10-15T16:37:59.131-07:00,-43.657347,2.879874,-18.598695,2025-10-15T16:37:59.136-07:00,376.300593,2.211147,-1.000000,33.304032,406.730296,-1.000000,15.148339,68.232346,-111.680075,0.000000,2025-10-15T16:37:59.494-07:00,0.394995,-0.095862,-0.010618,2025-10-15T16:37:59.129-07:00,0.621983,-0.047333,-0.990433,-0.097174,-0.052882,0.025336,-0.050695,2025-10-15T16:37:59.136-07:00,-0.998491,0.069419,-0.112908,2025-10-15T16:37:59.129-07:00,-0.118652,0.186411,-0.181261,2025-10-15T16:37:59.136-07:00
75.000000,0.081540,-0.213313,0.379469,2025-10-15T16:38:00.130-07:00,-9.718976,-0.234708,-0.655780,2025-10-15T16:38:00.130-07:00,-612.051042,46.272861,55.469973,2025-10-15T16:38:00.127-07:00,-44.446507,0.967319,-16.742883,2025-10-15T16:38:00.130-07:00,376.300145,1.806211,-1.000000,33.304032,406.729848,-1.000000,16.000578,68.988716,-111.680076,0.000000,2025-10-15T16:38:00.475-07:00,0.084480,-0.205035,0.364553,2025-10-15T16:38:00.134-07:00,-0.023061,-0.033204,-0.997136,-0.067723,-0.013040,-0.012162,0.024039,2025-10-15T16:38:00.130-07:00,-1.002071,-0.022708,-0.081652,2025-10-15T16:38:00.134-07:00,-0.085268,0.019932,-0.128052,2025-10-15T16:38:00.130-07:00
76.000000,-0.458623,0.246697,-0.358489,2025-10-15T16:38:01.134-07:00,-9.494891,-1.466598,-1.168909,2025-10-15T16:38:01.134-07:00,-609.990678,38.307380,53.492557,2025-10-15T16:38:01.133-07:00,-42.087996,-7.113111,-18.854170,2025-10-15T16:38:01.134-07:00,376.300145,2.019405,-1.000000,33.304033,406.729848,-1.000000,16.180862,68.988716,-111.680077,0.000000,2025-10-15T16:38:01.493-07:00,-0.460835,0.234464,-0.346497,2025-10-15T16:38:01.128-07:00,1.818540,-0.065029,-0.985279,-0.124278,-0.097014,-0.073241,0.150744,2025-10-15T16:38:01.134-07:00,-0.907786,-0.127161,-0.135864,2025-10-15T16:38:01.128-07:00,0.608583,0.201377,-0.179955,2025-10-15T16:38:01.134-07:00
77.000000,-0.204486,0.077490,-0.094927,2025-10-15T16:38:02.128-07:00,-9.655326,1.580138,0.578769,2025-10-15T16:38:02.128-07:00,-613.922334,46.622850,62.825226,2025-10-15T16:38:02.129-07:00,-46.067195,1.201504,-9.404470,2025-10-15T16:38:02.128-07:00,,,,,,,,,,,,-0.203313,0.075533,-0.095388,2025-10-15T16:38:02.132-07:00,2.510014,0.053609,-0.945927,0.059883,-0.311623,0.067374,-0.161904,2025-10-15T16:38:02.128-07:00,-0.990545,0.150340,0.067241,2025-10-15T16:38:02.132-07:00,-0.061955,-0.113799,0.075485,2025-10-15T16:38:02.128-07:00
78.000000,0.034796,-0.021506,-0.006851,2025-10-15T16:38:03.133-07:00,-9.635222,1.674944,0.720475,2025-10-15T16:38:03.133-07:00,-613.920190,46.771434,64.097766,2025-10-15T16:38:03.135-07:00,-46.044371,1.396488,-8.068600,2025-10-15T16:38:03.133-07:00,,,,,,,,,,,,0.034595,-0.024553,-0.008312,2025-10-15T16:38:03.137-07:00,2.475910,0.063122,-0.939880,0.074632,-0.328294,0.068790,-0.171643,2025-10-15T16:38:03.133-07:00,-0.978074,0.159531,0.072657,2025-10-15T16:38:03.137-07:00,0.035398,-0.110497,-0.006074,2025-10-15T16:38:03.133-07:00
79.000000,-0.052740,0.061188,0.087720,2025-10-15T16:38:04.127-07:00,-9.681256,1.270345,0.866147,2025-10-15T16:38:04.127-07:00,-614.082313,44.957949,64.845653,2025-10-15T16:38:04.131-07:00,-46.126049,-0.376779,-7.349511,2025-10-15T16:38:04.127-07:00,,,,,,,,,,,,-0.054632,0.059653,0.085337,2025-10-15T16:38:04.131-07:00,2.459487,0.063479,-0.938374,0.089178,-0.336024,0.046184,-0.129940,2025-10-15T16:38:04.127-07:00,-0.977243,0.122957,0.082896,2025-10-15T16:38:04.131-07:00,0.111824,-0.062584,-0.054581,2025-10-15T16:38:04.127-07:00
80.000000,0.005740,-0.008359,-0.000171,2025-10-15T16:38:05.131-07:00,-9.713753,0.872616,1.024869,2025-10-15T16:38:05.131-07:00,-614.129601,42.932793,65.727573,2025-10-15T16:38:05.127-07:00,-46.156970,-2.446111,-6.435879,2025-10-15T16:38:05.131-07:00,,,,,,,,,,,,0.003811,-0.010771,-0.001954,2025-10-15T16:38:05.135-07:00,2.447090,0.064487,-0.937277,0.105119,-0.341706,0.023956,-0.089100,2025-10-15T16:38:05.131-07:00,-0.979802,0.079631,0.100821,2025-10-15T16:38:05.135-07:00,0.109120,-0.091620,-0.035992,2025-10-15T16:38:05.131-07:00
81.000000,0.032797,-0.033136,-0.023335,2025-10-15T16:38:06.136-07:00,-9.714994,0.964222,0.918123,2025-10-15T16:38:06.136-07:00,-613.265754,43.393196,65.262578,2025-10-15T16:38:06.133-07:00,-45.289886,-1.990296,-6.897574,2025-10-15T16:38:06.136-07:00,,,,,,,,,,,,0.030890,-0.034932,-0.025751,2025-10-15T16:38:06.129-07:00,2.464321,0.060664,-0.940212,0.094219,-0.333584,0.030718,-0.098484,2025-10-15T16:38:06.136-07:00,-0.980774,0.086152,0.087791,2025-10-15T16:38:06.129-07:00,0.097730,-0.118324,-0.057072,2025-10-15T16:38:06.136-07:00
82.000000,0.082577,-0.018854,0.015674,2025-10-15T16:38:07.130-07:00,-9.733925,0.905607,0.765908,2025-10-15T16:38:07.130-07:00,-614.073804,43.666880,64.471086,2025-10-15T16:38:07.129-07:00,-46.078350,-1.706551,-7.704165,2025-10-15T16:38:07.130-07:00,,,,,,,,,,,,0.080793,-0.020741,0.014576,2025-10-15T16:38:07.134-07:00,2.514889,0.051550,-0.948903,0.078522,-0.309373,0.031805,-0.092481,2025-10-15T16:38:07.130-07:00,-0.983199,0.085282,0.077639,2025-10-15T16:38:07.134-07:00,0.090972,-0.069628,-0.003740,2025-10-15T16:38:07.130-07:00
83.000000,0.071191,-0.011261,-0.014284,2025-10-15T16:38:08.134-07:00,-9.748396,0.941167,0.497725,2025-10-15T16:38:08.134-07:00,-613.913886,44.905119,62.688989,2025-10-15T16:38:08.135-07:00,-45.950341,-0.473646,-9.490035,2025-10-15T16:38:08.134-07:00,,,,,,,,,,,,0.070620,-0.014004,-0.016516,2025-10-15T16:38:08.128-07:00,2.593308,0.037519,-0.960853,0.051013,-0.271487,0.039331,-0.096122,2025-10-15T16:38:08.134-07:00,-0.983698,0.085286,0.047848,2025-10-15T16:38:08.128-07:00,0.106795,-0.109118,-0.027884,2025-10-15T16:38:08.134-07:00
84.000000,0.002939,0.000209,-0.002215,2025-10-15T16:38:09.129-07:00,-9.739052,1.000998,0.564365,2025-10-15T16:38:09.129-07:00,-613.831887,45.477113,62.767234,2025-10-15T16:38:09.131-07:00,-45.926536,0.121278,-9.417994,2025-10-15T16:38:09.129-07:00,,,,,,,,,,,,0.001212,-0.002434,-0.003884,2025-10-15T16:38:09.132-07:00,2.614740,0.041205,-0.963450,0.057884,-0.261368,0.041794,-0.102252,2025-10-15T16:38:09.129-07:00,-0.984021,0.092384,0.056415,2025-10-15T16:38:09.132-07:00,0.089872,-0.095631,-0.013076,2025-10-15T16:38:09.129-07:00
85.000000,-0.003957,0.001753,-0.000953,2025-10-15T16:38:10.133-07:00,-9.737608,1.005582,0.581031,2025-10-15T16:38:10.133-07:00,-613.291635,45.576608,62.738508,2025-10-15T16:38:10.127-07:00,-45.417223,0.221759,-9.444521,2025-10-15T16:38:10.133-07:00,376.299469,-1.000000,-1.000000,33.304035,406.729172,-1.000000,14.787193,50.955185,-111.680080,-1.000000,2025-10-15T16:38:10.475-07:00,-0.004846,-0.000376,-0.003023,2025-10-15T16:38:10.127-07:00,2.621805,0.041943,-0.964319,0.059598,-0.258002,0.041945,-0.102722,2025-10-15T16:38:10.133-07:00,-0.983723,0.091015,0.054724,2025-10-15T16:38:10.127-07:00,0.087981,-0.113021,-0.047566,2025-10-15T16:38:10.133-07:00
86.000000,0.269871,-0.056395,0.027503,2025-10-15T16:38:11.127-07:00,-9.743910,1.072000,0.148857,2025-10-15T16:38:11.127-07:00,-613.234584,47.168003,60.402579,2025-10-15T16:38:11.133-07:00,-45.276409,1.792322,-11.754789,2025-10-15T16:38:11.127-07:00,376.299469,2.185977,-1.000000,33.304035,406.729172,-1.000000,15.417664,68.089577,-111.680081,0.000000,2025-10-15T16:38:11.475-07:00,0.266865,-0.050994,0.024736,2025-10-15T16:38:11.131-07:00,2.734720,0.018506,-0.977336,0.015259,-0.201998,0.051865,-0.109544,2025-10-15T16:38:11.127-07:00,-0.982517,0.095614,0.017766,2025-10-15T16:38:11.131-07:00,0.126576,-0.112823,0.052407,2025-10-15T16:38:11.127-07:00
87.000000,-0.082878,0.036144,-0.024382,2025-10-15T16:38:12.131-07:00,-9.736765,0.878080,0.750795,2025-10-15T16:38:12.131-07:00,-614.266727,47.662173,62.914423,2025-10-15T16:38:12.129-07:00,-46.368141,2.303419,-9.258994,2025-10-15T16:38:12.131-07:00,376.299469,2.443997,-1.000000,33.304035,406.729172,-1.000000,16.232164,68.089577,-111.680082,0.000000,2025-10-15T16:38:12.493-07:00,-0.082370,0.026007,-0.025798,2025-10-15T16:38:12.135-07:00,2.832822,0.044987,-0.985895,0.076950,-0.155149,0.038360,-0.089669,2025-10-15T16:38:12.131-07:00,-0.986439,0.088674,0.068664,2025-10-15T16:38:12.135-07:00,0.047301,-0.030974,-0.103262,2025-10-15T16:38:12.131-07:00
88.000000,-0.051095,0.015222,0.000881,2025-10-15T16:38:13.136-07:00,-9.723708,1.056978,0.704199,2025-10-15T16:38:13.136-07:00,-614.120895,47.145791,62.938882,2025-10-15T16:38:13.135-07:00,-46.213791,1.788404,-9.237231,2025-10-15T16:38:13.136-07:00,,,,,,,,,,,,-0.053388,0.012769,-0.000730,2025-10-15T16:38:13.129-07:00,2.743364,0.046043,-0.977734,0.072297,-0.199290,0.045705,-0.107993,2025-10-15T16:38:13.136-07:00,-0.979601,0.090465,0.071499,2025-10-15T16:38:13.129-07:00,0.118192,-0.170726,-0.002551,2025-10-15T16:38:13.136-07:00
89.000000,0.023483,-0.006895,0.005414,2025-10-15T16:38:14.130-07:00,-9.747382,0.899328,0.589180,2025-10-15T16:38:14.130-07:00,-614.031878,46.900965,62.300235,2025-10-15T16:38:14.131-07:00,-46.128066,1.535928,-9.881538,2025-10-15T16:38:14.130-07:00,,,,,,,,,,,,0.022104,-0.008935,0.003565,2025-10-15T16:38:14.134-07:00,2.767524,0.038158,-0.980807,0.060371,-0.187023,0.039472,-0.091836,2025-10-15T16:38:14.130-07:00,-0.982998,0.079694,0.058092,2025-10-15T16:38:14.134-07:00,0.111647,-0.113177,-0.016259,2025-10-15T16:38:14.130-07:00
90.000000,0.004128,-0.009721,-0.000717,2025-10-15T16:38:15.134-07:00,-9.746612,0.926089,0.561293,2025-10-15T16:38:15.134-07:00,-613.984899,47.073311,61.982496,2025-10-15T16:38:15.127-07:00,-46.096430,1.705175,-10.208694,2025-10-15T16:38:15.134-07:00,,,,,,,,,,,,0.002229,-0.011860,-0.002640,2025-10-15T16:38:15.128-07:00,2.775862,0.036840,-0.981570,0.057525,-0.182906,0.041236,-0.094576,2025-10-15T16:38:15.134-07:00,-0.985120,0.083600,0.056649,2025-10-15T16:38:15.128-07:00,0.088892,-0.106499,-0.004378,2025-10-15T16:38:15.134-07:00
91.000000,0.004910,-0.004157,0.001129,2025-10-15T16:38:16.129-07:00,-9.752023,0.911847,0.486186,2025-10-15T16:38:16.129-07:00,-613.932359,46.983822,61.789391,2025-10-15T16:38:16.133-07:00,-46.026949,1.618185,-10.397631,2025-10-15T16:38:16.129-07:00,,,,,,,,,,,,0.003611,-0.006750,-0.000985,2025-10-15T16:38:16.132-07:00,2.779144,0.032855,-0.982043,0.049814,-0.181123,0.041281,-0.093117,2025-10-15T16:38:16.129-07:00,-0.984316,0.081741,0.050858,2025-10-15T16:38:16.132-07:00,0.094521,-0.109441,0.011506,2025-10-15T16:38:16.129-07:00
92.000000,0.105805,-0.027121,-0.044892,2025-10-15T16:38:17.133-07:00,-9.755732,0.910807,0.387625,2025-10-15T16:38:17.133-07:00,-613.338775,47.467651,61.536258,2025-10-15T16:38:17.129-07:00,-45.461106,2.068695,-10.641976,2025-10-15T16:38:17.133-07:00,,,,,,,,,,,,0.103355,-0.028401,-0.046984,2025-10-15T16:38:17.127-07:00,2.805153,0.027278,-0.984285,0.039710,-0.168089,0.042429,-0.093015,2025-10-15T16:38:17.133-07:00,-0.981844,0.084704,0.040634,2025-10-15T16:38:17.127-07:00,0.134769,-0.088464,0.012069,2025-10-15T16:38:17.133-07:00
93.000000,-0.072157,0.029330,0.033598,2025-10-15T16:38:18.127-07:00,-9.675529,1.524471,0.409008,2025-10-15T16:38:18.127-07:00,-613.788610,50.877682,61.527331,2025-10-15T16:38:18.136-07:00,-45.905742,5.551504,-10.649764,2025-10-15T16:38:18.127-07:00,,,,,,,,,,,,-0.073939,0.026711,0.033886,2025-10-15T16:38:18.131-07:00,2.857922,0.031741,-0.986252,0.042260,-0.142526,0.074245,-0.156134,2025-10-15T16:38:18.127-07:00,-0.992110,0.141575,0.041305,2025-10-15T16:38:18.131-07:00,-0.086179,-0.123815,-0.009354,2025-10-15T16:38:18.127-07:00
94.000000,0.178827,-0.033925,-0.037451,2025-10-15T16:38:19.131-07:00,-9.670875,1.578247,0.254175,2025-10-15T16:38:19.131-07:00,-613.197355,52.906060,60.468109,2025-10-15T16:38:19.132-07:00,-45.362783,7.522002,-11.716721,2025-10-15T16:38:19.131-07:00,,,,,,,,,,,,0.182146,-0.037227,-0.042288,2025-10-15T16:38:19.135-07:00,2.984730,0.019112,-0.992853,0.026279,-0.079103,0.079384,-0.161699,2025-10-15T16:38:19.131-07:00,-0.969054,0.155075,0.020014,2025-10-15T16:38:19.135-07:00,0.191320,-0.068424,-0.051680,2025-10-15T16:38:19.131-07:00
95.000000,-0.249063,0.060005,0.024153,2025-10-15T16:38:20.136-07:00,-9.737356,0.964820,0.594538,2025-10-15T16:38:20.136-07:00,-614.268487,47.822024,62.192131,2025-10-15T16:38:20.127-07:00,-46.465733,2.510504,-10.038143,2025-10-15T16:38:20.136-07:00,,,,,,,,,,,,-0.251032,0.057683,0.022908,2025-10-15T16:38:20.130-07:00,2.827200,0.037653,-0.985042,0.060973,-0.157633,0.043534,-0.098561,2025-10-15T16:38:20.136-07:00,-0.977691,0.091446,0.066610,2025-10-15T16:38:20.130-07:00,0.148123,-0.067564,0.055624,2025-10-15T16:38:20.136-07:00
96.000000,0.033315,-0.015977,0.004410,2025-10-15T16:38:21.130-07:00,-9.717518,1.175772,0.595356,2025-10-15T16:38:21.130-07:00,-614.229606,47.866773,62.482929,2025-10-15T16:38:21.134-07:00,-46.367673,2.552835,-9.734601,2025-10-15T16:38:21.130-07:00,,,,,,,,,,,,0.033397,-0.017769,0.001410,2025-10-15T16:38:21.134-07:00,2.759900,0.041373,-0.979250,0.061191,-0.191061,0.053139,-0.120186,2025-10-15T16:38:21.130-07:00,-0.979954,0.107156,0.062710,2025-10-15T16:38:21.134-07:00,0.109027,-0.126952,0.023031,2025-10-15T16:38:21.130-07:00
97.000000,0.036966,0.006267,0.036311,2025-10-15T16:38:22.134-07:00,-9.740480,0.959911,0.600056,2025-10-15T16:38:22.134-07:00,-614.277254,47.333990,62.587822,2025-10-15T16:38:22.130-07:00,-46.368506,2.034559,-9.638696,2025-10-15T16:38:22.134-07:00,,,,,,,,,,,,0.033610,0.003275,0.034985,2025-10-15T16:38:22.128-07:00,2.765346,0.039393,-0.980345,0.061523,-0.188155,0.042379,-0.098046,2025-10-15T16:38:22.134-07:00,-0.982887,0.088439,0.065875,2025-10-15T16:38:22.128-07:00,0.100978,-0.089216,0.049848,2025-10-15T16:38:22.134-07:00
98.000000,-0.041375,0.007855,-0.005717,2025-10-15T16:38:23.129-07:00,-9.747897,0.809442,0.700174,2025-10-15T16:38:23.129-07:00,-614.250501,46.917170,63.092801,2025-10-15T16:38:23.136-07:00,-46.279100,1.611142,-9.120585,2025-10-15T16:38:23.129-07:00,,,,,,,,,,,,-0.043343,0.006521,-0.008336,2025-10-15T16:38:23.132-07:00,2.790168,0.042482,-0.982855,0.071705,-0.176002,0.034377,-0.082635,2025-10-15T16:38:23.129-07:00,-0.984986,0.073460,0.079072,2025-10-15T16:38:23.132-07:00,0.097123,-0.089950,0.071746,2025-10-15T16:38:23.129-07:00
99.000000,0.009032,-0.008205,0.000294,2025-10-15T16:38:24.133-07:00,-9.745787,0.874467,0.651147,2025-10-15T16:38:24.133-07:00,-614.109398,46.973505,62.923566,2025-10-15T16:38:24.132-07:00,-46.101006,1.666706,-9.283845,2025-10-15T16:38:24.133-07:00,,,,,,,,,,,,0.008135,-0.010779,-0.001240,2025-10-15T16:38:24.127-07:00,2.787931,0.040645,-0.982612,0.066714,-0.177101,0.038047,-0.089290,2025-10-15T16:38:24.133-07:00,-0.983231,0.078666,0.069635,2025-10-15T16:38:24.127-07:00,0.105440,-0.102535,0.032617,2025-10-15T16:38:24.133-07:00
100.000000,0.012955,-0.004820,0.002618,2025-10-15T16:38:25.127-07:00,-9.753127,0.817456,0.614617,2025-10-15T16:38:25.127-07:00,-613.906424,46.875180,62.785191,2025-10-15T16:38:25.128-07:00,-45.856013,1.567636,-9.426285,2025-10-15T16:38:25.127-07:00,,,,,,,,,,,,0.011268,-0.007241,0.000273,2025-10-15T16:38:25.131-07:00,2.797746,0.038105,-0.983683,0.062934,-0.172137,0.035700,-0.083454,2025-10-15T16:38:25.127-07:00,-0.983646,0.073364,0.068186,2025-10-15T16:38:25.131-07:00,0.106887,-0.098235,0.054214,2025-10-15T16:38:25.127-07:00
101.000000,0.789386,-0.014456,0.106306,2025-10-15T16:38:26.132-07:00,-9.780602,0.385899,0.322956,2025-10-15T16:38:26.132-07:00,-614.070872,47.693045,61.673558,2025-10-15T16:38:26.134-07:00,-45.975101,2.357127,-10.528291,2025-10-15T16:38:26.132-07:00,,,,,,,,,,,,0.780342,-0.013530,0.107218,2025-10-15T16:38:26.135-07:00,1.311031,0.020138,-0.989313,0.033037,-0.067139,0.017751,-0.039388,2025-10-15T16:38:26.132-07:00,-0.999045,0.042177,0.060847,2025-10-15T16:38:26.135-07:00,-0.017005,0.031053,0.273595,2025-10-15T16:38:26.132-07:00
102.000000,0.566901,0.110361,-0.061242,2025-10-15T16:38:27.136-07:00,-9.600728,0.270799,1.469624,2025-10-15T16:38:27.136-07:00,-616.340660,57.305343,71.633012,2025-10-15T16:38:27.130-07:00,-48.107647,11.981094,-0.650854,2025-10-15T16:38:27.136-07:00,,,,,,,,,,,,0.573981,0.104214,-0.072414,2025-10-15T16:38:27.130-07:00,-2.406007,0.066278,-0.924707,0.151756,0.355650,0.036430,-0.027643,2025-10-15T16:38:27.136-07:00,-0.925401,0.052574,0.104597,2025-10-15T16:38:27.130-07:00,0.499048,0.267073,-0.434647,2025-10-15T16:38:27.136-07:00
103.000000,0.446074,-0.109932,0.047152,2025-10-15T16:38:28.130-07:00,-9.763229,-0.555283,0.349430,2025-10-15T16:38:28.130-07:00,-617.911101,54.973432,74.327422,2025-10-15T16:38:28.136-07:00,-49.875269,9.778167,2.088888,2025-10-15T16:38:28.130-07:00,,,,,,,,,,,,0.449608,-0.112795,0.052069,2025-10-15T16:38:28.134-07:00,-1.778033,0.033036,-0.772342,0.035757,0.627072,-0.011381,0.056693,2025-10-15T16:38:28.130-07:00,-1.010531,-0.060763,0.001133,2025-10-15T16:38:28.134-07:00,-0.112013,-0.051553,-0.337315,2025-10-15T16:38:28.130-07:00
104.000000,0.233025,-0.027797,0.001326,2025-10-15T16:38:29.135-07:00,-9.783262,-0.575755,-0.283880,2025-10-15T16:38:29.135-07:00,-618.716601,54.302300,75.551226,2025-10-15T16:38:29.132-07:00,-50.754934,9.101166,3.316164,2025-10-15T16:38:29.135-07:00,,,,,,,,,,,,0.230062,-0.031041,0.000900,2025-10-15T16:38:29.128-07:00,-1.407098,0.013138,-0.646340,-0.029001,0.761262,-0.030376,0.058750,2025-10-15T16:38:29.135-07:00,-0.986133,-0.059450,-0.051657,2025-10-15T16:38:29.128-07:00,0.117469,-0.005720,-0.219565,2025-10-15T16:38:29.135-07:00
